{ 
	"pictures": [
			"images/kharkov/gorkiypark.jpg",
			"images/kharkov/metalist.jpg",
			"images/kharkov/ploschad_konstitucii.jpg",
			"images/kharkov/ploshha-svobody.jpg",
			"images/kharkov/privokzalna.jpg",
			"images/kharkov/zerkalnayastruya.jpg",
			"images/kharkov/hatob.jpg",
			"images/kharkov/sargin-yar-letom.jpg",
			"images/kharkov/vliublionnym.jpg",
			"images/kharkov/gradusnik.jpg",
			"images/kharkov/mariinskiymost.jpg",
			"images/kharkov/smotrovayapl.jpg",
			"images/kharkov/kaskad.jpg"
	],

	"cities" : {
		"kharkov" : [
			{
				"name": "Площадь Свободы",
				"adress": "пл. Свободы",
				"coordinates": {"lat": 50.005195, "lng": 36.2295846},
				"image": "images/kharkov/ploshha-svobody.jpg",
				"info": "Харьковская площадь Свободы является 12-й по величине на всей планете Земля, и 6-й - в Европе. Её территория занимает 11 гектаров."
			},
			{
				"name": "ЦПКиО им. М. Горького",
				"adress": "ул. Сумская, 81",
				"coordinates": {"lat": 50.0163106, "lng": 36.246678},
				"image": "images/kharkov/gorkiypark.jpg",
				"info": "Главный и самый большой парк Харькова. Обладатель международной премии «Golden Pony Awards-2013» за современную концепцию и тематическое оформление"
			},
			{
				"name": "Площадь Конституции",
				"adress": "пл. Конституции",
				"coordinates": {"lat": 49.9910202, "lng": 36.2303915},
				"image": "images/kharkov/ploschad_konstitucii.jpg",
				"info": "Площадь Конституции – это самая древняя из площадей Харькова. Дата основания - 1659 год, с того времени до наших дней площадь сменила множество названий."
			},
			{
				"name": "Привокзальная площадь",
				"adress": "пл. Привокзальная, 1",
				"coordinates": {"lat": 49.9894572, "lng": 36.2021105},
				"image": "images/kharkov/privokzalna.jpg",
				"info": "Привокзальная площадь – место отдыха, здесь люди ждут свой поезд. Ее украшением являются множество клумб и фонтан."
			},
			{
				"name": "Сад им. Т. Г. Шевченко",
				"adress": "ул. Сумская, 35",
				"coordinates": {"lat": 50.0007541, "lng": 36.2260388},
				"image": "images/kharkov/park_shevchenko.jpg",
				"info": "На территории парка установлено несколько памятников и монументов, среди которых памятник Тарасу Шевченко, а также памятник Василию Каразину, памятник футбольному мячу, памятник репрессированным кобзарям, памятник архангелу Михаилу, памятник 50 параллель."
			},
			{
				"name": "ХНАТОБ им. Н. В. Лысенко",
				"adress" : "ул. Сумская, 25",
				"coordinates": {"lat": 49.9992194, "lng": 36.2300367},
				"image":  "images/kharkov/hatob.jpg",
				"info": "ХАРЬКОВСКИЙ НАЦИОНАЛЬНЫЙ АКАДЕМИЧЕСКИЙ ТЕАТР ОПЕРЫ И БАЛЕТА им. Н.В. Лысенко."
			},
			{
				"name": "Марьинский мост",
				"adress": "Марьинский мост",
				"coordinates": {"lat": 49.9847063, "lng": 36.2234931},
				"image": "images/kharkov/mariinskiymost.jpg",
				"info": " Пешеходный подвесной мост через реку Харьков. С первых дней новый мост понравился влюбленным и молодоженам, которые вешают на перила замки,  как символ своей любви."
			},
			{
				"name": "Фонтан «Каскад»",
				"adress": "ул. Клочковская, 50",
				"coordinates": {"lat": 49.9991222, "lng": 36.2246668},
				"image": "images/kharkov/kaskad.jpg",
				"info": "На вид он напоминает водопад, поэтому стал одним из любимых мест отдыха для жителей и гостей города в жаркую погоду."
			}
		],
		"kiev" : [
			{
				"name": "Площадь Независимости",
				"adress": "площадь Независимости",
				"coordinates": {"lat": 50.4505189, "lng": 30.5230932},
				"image": "images/kiev/nezalezhnosti.jpg",
				"info": "Сердце Киева, которое было свидетелем революций, хлебом для продавцов сувениров, ориентиром встреч для влюбленных и стартом для экскурсионных групп."
			},
			{
				"name": "Пешеходный (Парковый) мост",
				"adress": "Набережное шоссе",
				"coordinates": {"lat": 50.4567832, "lng": 30.5341059},
				"image": "images/kiev/parkovyimost.jpg",
				"info": "Парковый мост — пешеходный мост через Днепр, который соединяет центральную часть Киева с парковой зоной и пляжами Труханового острова."
			},
			{
				"name": "Киево-Печерская Лавра",
				"adress": "ул. Лаврская, 15",
				"coordinates": {"lat": 50.4346377, "lng": 30.5573268},
				"image": "images/kiev/kyivpechersklavra.jpg",
				"info": "Киево-Печерская лавра — это первый монастырь на территории Киевской Руси, здесь сохранились практически в первозданном виде храмы, возведенные еще в 11 веке. Знаменитый монастырь с системой пещер"
			},
			{
				"name": "Почтовая площадь",
				"adress": "Почтовая площадь",
				"coordinates": {"lat": 50.4589009, "lng": 30.5257845},
				"image": "images/kiev/pochtovayaploschad.jpeg",
				"info": "Почтовая площадь считается одной из самых старых в столице, ведь ее история берет свое начало в еще в 4-ом столетии. Недалеко от Почтовой площади находится нижняя станция фуникулера."
			}
		],
		"lvov" : [
			{
				"name": "Ратуша",
				"adress": "пл. Ринок, 1",
				"coordinates": {"lat": 49.8417194, "lng": 24.0316875},
				"image": "images/lvov/ratusha.jpg",
				"info": "С 65-метровой башни Львовской ратуши открывается потрясающий вид на центр города и окрестности. "
			},
			{
				"name": "Доминиканский собор",
				"adress": "пл. Музейна, 1",
				"coordinates": {"lat": 49.8427077, "lng": 24.0338273},
				"image": "images/lvov/DominicanChurch.jpg",
				"info": "Доминиканский собор – это старинная достопримечательность Львова, представляющая архитектуру барокко. Здание входит в Ансамбль Старого Города (исторического центра), который внесен в список Всемирного наследия ЮНЕСКО."
			},
			{
				"name": "Дворцовая площадь",
				"adress": "пл. Дворцовая площадь",
				"coordinates": {"lat": 49.8396803, "lng": 23.9949307},
				"image": "images/lvov/VokzalLvov.jpg",
				"info": "Центральный транспортный узел Львова"
			},
			{
				"name": "Часовня Боимов",
				"adress": "пл. Кафедральная, 1",
				"coordinates": {"lat": 49.8407139, "lng": 24.0311078},
				"image": "images/lvov/kaplytsya-boyimiv.jpg",
				"info": "Этот уникальный памятник является украшением Катедральной площади, из этого переулка открывается один из лучших видов Львова на Площадь Рынок и городскую Ратушу. Интерьер сохранился с начала 17 столетия. Все деревянные предметы с росписями и резьбой остались нетронутыми. В 19 столетии заменили только центральную дверь, но сохранились оригинальные кованые элементы."
			}
		]		
	}		
}


			
