{ 
	"pictures": [
			"images/kharkov/gorkiypark.jpg",
			"images/kharkov/metalist.jpg",
			"images/kharkov/ploschad_konstitucii.jpg",
			"images/kharkov/ploshha-svobody.jpg",
			"images/kharkov/privokzalna.jpg",
			"images/kharkov/zerkalnayastruya.jpg",
			"images/kharkov/hatob.jpg",
			"images/kharkov/sargin-yar-letom.jpg",
			"images/kharkov/vliublionnym.jpg",
			"images/kharkov/gradusnik.jpg",
			"images/kharkov/mariinskiymost.jpg",
			"images/kharkov/smotrovayapl.jpg",
			"images/kharkov/kaskad.jpg"
	],

	"cities" : {
		"kharkov" : [
			{
				"name": "Площадь Свободы",
				"adress": "пл. Свободы",
				"coordinates": {"lat": 50.005195, "lng": 36.2295846},
				"image": "images/kharkov/ploshha-svobody.jpg",
				"info": "Харьковская площадь Свободы является 12-й по величине на всей планете Земля, и 6-й - в Европе. Её территория занимает 11 гектаров."
			},
			{
				"name": "ЦПКиО им. М. Горького",
				"adress": "ул. Сумская, 81",
				"coordinates": {"lat": 50.0163106, "lng": 36.246678},
				"image": "images/kharkov/gorkiypark.jpg",
				"info": "Главный и самый большой парк Харькова. Обладатель международной премии «Golden Pony Awards-2013» за современную концепцию и тематическое оформление"
			},
			{
				"name": "ОСК «Металіст»",
				"adress": "ул. Плехановская, 65",
				"coordinates": {"lat": 49.9797947, "lng": 36.2591195},
				"image": "images/kharkov/metalist.jpg",
				"info": "«Металлист» — центральный стадион города Харьков. Стадион и кассовый павильон стадиона занесены в Реестр культурно-национального наследия Украины."
			},
			{
				"name": "Площадь Конституции",
				"adress": "пл. Конституции",
				"coordinates": {"lat": 49.9910202, "lng": 36.2303915},
				"image": "images/kharkov/ploschad_konstitucii.jpg",
				"info": "Площадь Конституции – это самая древняя из площадей Харькова. Дата основания - 1659 год, с того времени до наших дней площадь сменила множество названий."
			},
			{
				"name": "Привокзальная площадь",
				"adress": "пл. Привокзальная, 1",
				"coordinates": {"lat": 49.9894572, "lng": 36.2021105},
				"image": "images/kharkov/privokzalna.jpg",
				"info": "Привокзальная площадь – место отдыха, здесь люди ждут свой поезд. Ее украшением являются множество клумб и фонтан."
			},
			{
				"name": "Сад им. Т. Г. Шевченко",
				"adress": "ул. Сумская, 35",
				"coordinates": {"lat": 50.0007541, "lng": 36.2260388},
				"image": "images/kharkov/park_shevchenko.jpg",
				"info": "На территории парка установлено несколько памятников и монументов, среди которых памятник Тарасу Шевченко, а также памятник Василию Каразину, памятник футбольному мячу, памятник репрессированным кобзарям, памятник архангелу Михаилу, памятник 50 параллель."
			},
			{
				"name": "Зеркальная струя",
				"adress": "ул. Сумская, 28/2",
				"coordinates": {"lat": 49.9986911, "lng": 36.2322906},
				"image": "images/kharkov/zerkalnayastruya.jpg",
				"info": "Фонтан «Зеркальная струя» является одним из наиболее выдающихся архитектурных сооружений Харькова, а также одним из его ярчайших символов. "
			},
			
			{
				"name": "ХНАТОБ им. Н. В. Лысенко",
				"adress" : "ул. Сумская, 25",
				"coordinates": {"lat": 49.9992194, "lng": 36.2300367},
				"image":  "images/kharkov/hatob.jpg",
				"info": "ХАРЬКОВСКИЙ НАЦИОНАЛЬНЫЙ АКАДЕМИЧЕСКИЙ ТЕАТР ОПЕРЫ И БАЛЕТА им. Н.В. Лысенко."
			},
			{
				"name": "Парк «Саржин яр»",
				"adress": "Саржин яр",
				"coordinates": {"lat": 50.0267216, "lng": 36.2265335},
				"image": "images/kharkov/sargin-yar-letom.jpg",
				"info": "Саржин Яр расположен в двух шагах от центра города, но это настоящий зелёный оазис среди бетонных построек."
			},
			{
				"name": "Площадь Архитекторов",
				"adress": "пл. Архитекторов",
				"coordinates": {"lat": 49.9986165, "lng": 36.2397148},
				"image": "images/kharkov/vliublionnym.jpg",
				"info": "Площадь Архитекторов – одна из самых молодых достопримечательностей Харькова. Площадь открыли 23 августа 2009 года."
			},
			{
				"name": "Градусник",
				"adress": "ул. Сумська, 1",
				"coordinates": {"lat": 49.9935056, "lng": 36.2294946},
				"image": "images/kharkov/gradusnik.jpg",
				"info": "Место для встреч и свиданий"
			},
			{
				"name": "Марьинский мост",
				"adress": "Марьинский мост",
				"coordinates": {"lat": 49.9847063, "lng": 36.2234931},
				"image": "images/kharkov/mariinskiymost.jpg",
				"info": " Пешеходный подвесной мост через реку Харьков. С первых дней новый мост понравился влюбленным и молодоженам, которые вешают на перила замки,  как символ своей любви."
			},
			{
				"name": "Сквер у Вечного огня",
				"adress": "ул. Университетская, 12",
				"coordinates": {"lat": 49.9897977, "lng": 36.2296393},
				"image": "images/kharkov/smotrovayapl.jpg",
				"info": "Сквер расположен на возвышенности, поэтому с него отлично видно Благовещенский собор"
			},
			{
				"name": "Фонтан «Каскад»",
				"adress": "ул. Клочковская, 50",
				"coordinates": {"lat": 49.9991222, "lng": 36.2246668},
				"image": "images/kharkov/kaskad.jpg",
				"info": "На вид он напоминает водопад, поэтому стал одним из любимых мест отдыха для жителей и гостей города в жаркую погоду."
			}
		],
		"kiev" : [
			{
				"name": "Площадь Независимости",
				"adress": "площадь Независимости",
				"coordinates": {"lat": 50.4505189, "lng": 30.5230932},
				"image": "images/kiev/nezalezhnosti.jpg",
				"info": "Сердце Киева, которое было свидетелем революций, хлебом для продавцов сувениров, ориентиром встреч для влюбленных и стартом для экскурсионных групп."
			},
			{
				"name": "Пешеходный (Парковый) мост",
				"adress": "Набережное шоссе",
				"coordinates": {"lat": 50.4567832, "lng": 30.5341059},
				"image": "images/kiev/parkovyimost.jpg",
				"info": "Парковый мост — пешеходный мост через Днепр, который соединяет центральную часть Киева с парковой зоной и пляжами Труханового острова."
			},
			{
				"name": "Киево-Печерская Лавра",
				"adress": "ул. Лаврская, 15",
				"coordinates": {"lat": 50.4346377, "lng": 30.5573268},
				"image": "images/kiev/kyivpechersklavra.jpg",
				"info": "Киево-Печерская лавра — это первый монастырь на территории Киевской Руси, здесь сохранились практически в первозданном виде храмы, возведенные еще в 11 веке. Знаменитый монастырь с системой пещер"
			},
			{
				"name": "Почтовая площадь",
				"adress": "Почтовая площадь",
				"coordinates": {"lat": 50.4589009, "lng": 30.5257845},
				"image": "images/kiev/pochtovayaploschad.jpeg",
				"info": "Почтовая площадь считается одной из самых старых в столице, ведь ее история берет свое начало в еще в 4-ом столетии. Недалеко от Почтовой площади находится нижняя станция фуникулера."
			}
		]	
	}		
}